<?xml version="1.0" encoding="UTF-8"?><gpx version="1.1" creator="History Walk 3.1.1" xmlns="http://www.topografix.com/GPX/1/1" xmlns:xsi="http://www.w3.org/2001/XMLSchema-instance" xsi:schemaLocation="http://www.topografix.com/GPX/1/1 http://www.topografix.com/GPX/1/1/gpx.xsd">
    <metadata>
        <name>Circuit de Mosquée El Chouhoud à Mosquée Houmet El Krashoua via Mosquée El Chehoud</name>
        <desc>Circuit généré par History Walk.</desc>
        <link href="https://stefanmartin1967.github.io/history-walk/">
            <text>History Walk [HW-ID:HW-1770576008958]</text>
        </link>
    </metadata>
    <wpt lat="33.781583" lon="10.889722">
      <name>Mosquée El Chouhoud</name>
      <desc></desc>
    </wpt>
    <wpt lat="33.781407" lon="10.892889">
      <name>Mosquée Robbana</name>
      <desc></desc>
    </wpt>
    <wpt lat="33.784959" lon="10.893311">
      <name>Mosquée El Chehoud</name>
      <desc></desc>
    </wpt>
    <wpt lat="33.781583" lon="10.889722">
      <name>Mosquée El Chouhoud</name>
      <desc></desc>
    </wpt>
    <wpt lat="33.771972" lon="10.883861">
      <name>Mosquée Jeddi Issa</name>
      <desc></desc>
    </wpt>
    <wpt lat="33.765194" lon="10.880417">
      <name>Mosquée Houmet El Krashoua</name>
      <desc></desc>
    </wpt><trk><name>Circuit de Mosquée El Chouhoud à Mosquée Houmet El Krashoua via Mosquée El Chehoud</name><desc><![CDATA[

(Créé par History Walk)]]></desc><trkseg><trkpt lat="33.781583" lon="10.889722"><ele>0</ele></trkpt>
      <trkpt lat="33.781407" lon="10.892889"><ele>0</ele></trkpt>
      <trkpt lat="33.784959" lon="10.893311"><ele>0</ele></trkpt>
      <trkpt lat="33.781583" lon="10.889722"><ele>0</ele></trkpt>
      <trkpt lat="33.771972" lon="10.883861"><ele>0</ele></trkpt>
      <trkpt lat="33.765194" lon="10.880417"><ele>0</ele></trkpt></trkseg></trk></gpx>